[{"name":"Aarhus","code":"AAR","city":"Aarhus","country":"Denmark","lat":56.3,"lng":10.619,"flag":"ğŸ‡©ğŸ‡°"},{"name":"Aberdeen","code":"ABZ","city":"Aberdeen","country":"United Kingdom","lat":57.2019,"lng":-2.19778,"flag":"ğŸ‡¬ğŸ‡§"},{"name":"Lanzarote","code":"ACE","city":"Lanzarote","country":"Spain","lat":28.9455,"lng":-13.6052,"flag":"ğŸ‡ªğŸ‡¸"},{"name":"Agadir","code":"AGA","city":"Agadir","country":"Morocco","lat":30.325,"lng":-9.41307,"flag":"ğŸ‡²ğŸ‡¦"},{"name":"Malaga","code":"AGP","city":"Malaga","country":"Spain","lat":36.6749,"lng":-4.49911,"flag":"ğŸ‡ªğŸ‡¸"},{"name":"Alghero","code":"AHO","city":"Alghero","country":"Italy","lat":40.6321,"lng":8.29077,"flag":"ğŸ‡®ğŸ‡¹"},{"name":"Alicante","code":"ALC","city":"Alicante","country":"Spain","lat":38.2822,"lng":-0.558156,"flag":"ğŸ‡ªğŸ‡¸"},{"name":"Amman Jordan","code":"AMM","city":"Amman","country":"Jordan","lat":31.9497,"lng":35.9328,"flag":"ğŸ‡¯ğŸ‡´"},{"name":"Amsterdam","code":"AMS","city":"Amsterdam","country":"Netherlands","lat":52.3105,"lng":4.76827,"flag":"ğŸ‡³ğŸ‡±"},{"name":"Ancona","code":"AOI","city":"Ancona","country":"Italy","lat":43.6163,"lng":13.3623,"flag":"ğŸ‡®ğŸ‡¹"},{"name":"Stockholm Arlanda","code":"ARN","city":"Stockholm","country":"Sweden","lat":59.6498,"lng":17.9239,"flag":"ğŸ‡¸ğŸ‡ª"},{"name":"Athens","code":"ATH","city":"Athens","country":"Greece","lat":37.9364,"lng":23.9445,"flag":"ğŸ‡¬ğŸ‡·"},{"name":"Bucharest Baneasa ","code":"BBU","city":"Bucharest","country":"Romania","lat":44.502164658,"lng":26.102166258,"flag":"ğŸ‡·ğŸ‡´"},{"name":"Barcelona","code":"BCN","city":"Barcelona","country":"Spain","lat":41.2971,"lng":2.07846,"flag":"ğŸ‡ªğŸ‡¸"},{"name":"Brindisi","code":"BDS","city":"Brindisi","country":"Italy","lat":40.6576,"lng":17.947,"flag":"ğŸ‡®ğŸ‡¹"},{"name":"Beni Mellal","code":"BEM","city":"Beni Mellal","country":"Morocco","lat":32.2022,"lng":-6.2139,"flag":"ğŸ‡²ğŸ‡¦"},{"name":"Berlin Brandenburg","code":"BER","city":"Berlin","country":"Germany","lat":52.3667,"lng":13.5033,"flag":"ğŸ‡©ğŸ‡ª"},{"name":"Belfast International","code":"BFS","city":"Belfast","country":"United Kingdom","lat":54.6575,"lng":-6.2158,"flag":"ğŸ‡¬ğŸ‡§"},{"name":"Milan Bergamo","code":"BGY","city":"Bergamo","country":"Italy","lat":45.6739,"lng":9.70417,"flag":"ğŸ‡®ğŸ‡¹"},{"name":"Birmingham","code":"BHX","city":"Birmingham","country":"United Kingdom","lat":52.4539,"lng":-1.74803,"flag":"ğŸ‡¬ğŸ‡§"},{"name":"Biarritz","code":"BIQ","city":"Biarritz","country":"France","lat":43.4684,"lng":-1.52332,"flag":"ğŸ‡«ğŸ‡·"},{"name":"Bodrum","code":"BJV","city":"Bodrum","country":"Turkey","lat":37.2506,"lng":27.6642,"flag":"ğŸ‡¹ğŸ‡·"},{"name":"Bologna","code":"BLQ","city":"Bologna","country":"Italy","lat":44.5354,"lng":11.2887,"flag":"ğŸ‡®ğŸ‡¹"},{"name":"Banja Luka","code":"BNX","city":"Banja Luka","country":"Bosnia & Herzegovina","lat":44.5629,"lng":17.1731,"flag":"ğŸ‡§ğŸ‡¦"},{"name":"Bournemouth","code":"BOH","city":"Bournemouth","country":"United Kingdom","lat":50.78,"lng":-1.8425,"flag":"ğŸ‡¬ğŸ‡§"},{"name":"Burgas","code":"BOJ","city":"Burgas","country":"Bulgaria","lat":42.3413,"lng":27.3055,"flag":"ğŸ‡§ğŸ‡¬"},{"name":"Bremen","code":"BRE","city":"Bremen","country":"Germany","lat":53.0475,"lng":8.78667,"flag":"ğŸ‡©ğŸ‡ª"},{"name":"Bari","code":"BRI","city":"Bari","country":"Italy","lat":41.1389,"lng":16.7606,"flag":"ğŸ‡®ğŸ‡¹"},{"name":"Brno","code":"BRQ","city":"Brno","country":"Czech Republic","lat":49.1513,"lng":16.6944,"flag":"ğŸ‡¨ğŸ‡¿"},{"name":"Bristol","code":"BRS","city":"Bristol","country":"United Kingdom","lat":51.3827,"lng":-2.71909,"flag":"ğŸ‡¬ğŸ‡§"},{"name":"Brussels","code":"BRU","city":"Brussels","country":"Belgium","lat":50.9014,"lng":4.48444,"flag":"ğŸ‡§ğŸ‡ª"},{"name":"Basel","code":"BSL","city":"Basel","country":"Switzerland","lat":47.5896,"lng":7.52991,"flag":"ğŸ‡¨ğŸ‡­"},{"name":"Bratislava","code":"BTS","city":"Bratislava","country":"Slovakia","lat":48.1702,"lng":17.2127,"flag":"ğŸ‡¸ğŸ‡°"},{"name":"Budapest","code":"BUD","city":"Budapest","country":"Hungary","lat":47.4369,"lng":19.2556,"flag":"ğŸ‡­ğŸ‡º"},{"name":"Paris Beauvais","code":"BVA","city":"Paris","country":"France","lat":49.4544,"lng":2.11278,"flag":"ğŸ‡«ğŸ‡·"},{"name":"Brive","code":"BVE","city":"Brive","country":"France","lat":45.1508,"lng":1.46917,"flag":"ğŸ‡«ğŸ‡·"},{"name":"Bydgoszcz","code":"BZG","city":"Bydgoszcz","country":"Poland","lat":53.0968,"lng":17.9777,"flag":"ğŸ‡µğŸ‡±"},{"name":"Beziers Cap d'Agde","code":"BZR","city":"Beziers","country":"France","lat":43.3235,"lng":3.3539,"flag":"ğŸ‡«ğŸ‡·"},{"name":"Cagliari","code":"CAG","city":"Cagliari","country":"Italy","lat":39.2515,"lng":9.05428,"flag":"ğŸ‡®ğŸ‡¹"},{"name":"Carcassonne","code":"CCF","city":"Carcassonne","country":"France","lat":43.216,"lng":2.30632,"flag":"ğŸ‡«ğŸ‡·"},{"name":"Castellon (Valencia)","code":"CDT","city":"Castellon","country":"Spain","lat":39.999,"lng":0.026,"flag":"ğŸ‡ªğŸ‡¸"},{"name":"Clermont","code":"CFE","city":"Clermont Ferrand","country":"France","lat":45.7867,"lng":3.16917,"flag":"ğŸ‡«ğŸ‡·"},{"name":"Corfu","code":"CFU","city":"Corfu","country":"Greece","lat":39.6019,"lng":19.9117,"flag":"ğŸ‡¬ğŸ‡·"},{"name":"Cologne","code":"CGN","city":"Cologne","country":"Germany","lat":50.8659,"lng":7.14274,"flag":"ğŸ‡©ğŸ‡ª"},{"name":"Chania","code":"CHQ","city":"Chania","country":"Greece","lat":35.5317,"lng":24.1497,"flag":"ğŸ‡¬ğŸ‡·"},{"name":"Rome Ciampino","code":"CIA","city":"Rome","country":"Italy","lat":41.7994,"lng":12.5949,"flag":"ğŸ‡®ğŸ‡¹"},{"name":"Cluj","code":"CLJ","city":"Cluj","country":"Romania","lat":46.785,"lng":23.6861,"flag":"ğŸ‡·ğŸ‡´"},{"name":"Copenhagen","code":"CPH","city":"Copenhagen","country":"Denmark","lat":55.6181,"lng":12.6561,"flag":"ğŸ‡©ğŸ‡°"},{"name":"Brussels Charleroi","code":"CRL","city":"Charleroi","country":"Belgium","lat":50.4592,"lng":4.45382,"flag":"ğŸ‡§ğŸ‡ª"},{"name":"Crotone","code":"CRV","city":"Crotone","country":"Italy","lat":38.99722,"lng":17.08028,"flag":"ğŸ‡®ğŸ‡¹"},{"name":"Catania","code":"CTA","city":"Catania","country":"Italy","lat":37.4668,"lng":15.0664,"flag":"ğŸ‡®ğŸ‡¹"},{"name":"Cuneo","code":"CUF","city":"Cuneo","country":"Italy","lat":44.547,"lng":7.62322,"flag":"ğŸ‡®ğŸ‡¹"},{"name":"Cardiff","code":"CWL","city":"Cardiff","country":"United Kingdom","lat":51.3967,"lng":-3.34333,"flag":"ğŸ‡¬ğŸ‡§"},{"name":"Dubrovnik","code":"DBV","city":"Dubrovnik","country":"Croatia","lat":42.5614,"lng":18.2683,"flag":"ğŸ‡­ğŸ‡·"},{"name":"Dole","code":"DLE","city":"Dole","country":"France","lat":47.039,"lng":5.42725,"flag":"ğŸ‡«ğŸ‡·"},{"name":"Dalaman","code":"DLM","city":"Dalaman","country":"Turkey","lat":36.7147,"lng":28.7928,"flag":"ğŸ‡¹ğŸ‡·"},{"name":"Dublin","code":"DUB","city":"Dublin","country":"Ireland","lat":53.4213,"lng":-6.27007,"flag":"ğŸ‡®ğŸ‡ª"},{"name":"Edinburgh","code":"EDI","city":"Edinburgh","country":"United Kingdom","lat":55.95,"lng":-3.3725,"flag":"ğŸ‡¬ğŸ‡§"},{"name":"Kefalonia","code":"EFL","city":"Kefalonia","country":"Greece","lat":38.1201,"lng":20.5005,"flag":"ğŸ‡¬ğŸ‡·"},{"name":"Bergerac","code":"EGC","city":"Bergerac","country":"France","lat":44.8253,"lng":0.518611,"flag":"ğŸ‡«ğŸ‡·"},{"name":"Eindhoven","code":"EIN","city":"Eindhoven","country":"Netherlands","lat":51.4501,"lng":5.37453,"flag":"ğŸ‡³ğŸ‡±"},{"name":"East Midlands","code":"EMA","city":"East Midlands","country":"United Kingdom","lat":52.8311,"lng":-1.32806,"flag":"ğŸ‡¬ğŸ‡§"},{"name":"Errachidia","code":"ERH","city":"Errachidia","country":"Morocco","lat":31.5649,"lng":-4.2356,"flag":"ğŸ‡²ğŸ‡¦"},{"name":"Essaouira","code":"ESU","city":"Essaouira","country":"Morocco","lat":31.3918,"lng":-9.6757,"flag":"ğŸ‡²ğŸ‡¦"},{"name":"Exeter","code":"EXT","city":"Exeter","country":"United Kingdom","lat":50.7344,"lng":-3.4139,"flag":"ğŸ‡¬ğŸ‡§"},{"name":"Faro","code":"FAO","city":"Faro","country":"Portugal","lat":37.0144,"lng":-7.96591,"flag":"ğŸ‡µğŸ‡¹"},{"name":"Rome Fiumicino","code":"FCO","city":"Rome","country":"Italy","lat":41.8045,"lng":12.2508,"flag":"ğŸ‡®ğŸ‡¹"},{"name":"Fez","code":"FEZ","city":"Fez","country":"Morocco","lat":33.9273,"lng":-4.97796,"flag":"ğŸ‡²ğŸ‡¦"},{"name":"Karlsruhe / Baden-Baden","code":"FKB","city":"Karlsruhe","country":"Germany","lat":48.7794,"lng":8.0805,"flag":"ğŸ‡©ğŸ‡ª"},{"name":"Memmingen","code":"FMM","city":"Memmingen","country":"Germany","lat":47.9888,"lng":10.2395,"flag":"ğŸ‡©ğŸ‡ª"},{"name":"MÃ¼nster","code":"FMO","city":"MÃ¼nster","country":"Germany","lat":52.1346,"lng":7.68483,"flag":"ğŸ‡©ğŸ‡ª"},{"name":"Madeira Funchal","code":"FNC","city":"Funchal","country":"Portugal","lat":32.6942,"lng":-16.7781,"flag":"ğŸ‡µğŸ‡¹"},{"name":"Nimes","code":"FNI","city":"Nimes","country":"France","lat":43.7574,"lng":4.41635,"flag":"ğŸ‡«ğŸ‡·"},{"name":"Bologna Forli","code":"FRL","city":"Bologna","country":"Italy","lat":44.1948,"lng":12.0701,"flag":"ğŸ‡®ğŸ‡¹"},{"name":"Figari-Corsica","code":"FSC","city":"Figari","country":"France","lat":41.5006,"lng":9.09778,"flag":"ğŸ‡«ğŸ‡·"},{"name":"Fuerteventura","code":"FUE","city":"Fuerteventura","country":"Spain","lat":28.4527,"lng":-13.8638,"flag":"ğŸ‡ªğŸ‡¸"},{"name":"Gdansk","code":"GDN","city":"Gdansk","country":"Poland","lat":54.3776,"lng":18.4662,"flag":"ğŸ‡µğŸ‡±"},{"name":"Glasgow","code":"GLA","city":"Glasgow","country":"United Kingdom","lat":55.87194,"lng":-4.43306,"flag":"ğŸ‡¬ğŸ‡§"},{"name":"Grenoble","code":"GNB","city":"Grenoble","country":"France","lat":45.3629,"lng":5.32937,"flag":"ğŸ‡«ğŸ‡·"},{"name":"Genoa","code":"GOA","city":"Genoa","country":"Italy","lat":44.4133,"lng":8.8375,"flag":"ğŸ‡®ğŸ‡¹"},{"name":"GÃ¶teborg Landvetter","code":"GOT","city":"Gothenburg","country":"Sweden","lat":57.6741,"lng":12.2925,"flag":"ğŸ‡¸ğŸ‡ª"},{"name":"Patras","code":"GPA","city":"Araxos","country":"Greece","lat":38.1511,"lng":21.4256,"flag":"ğŸ‡¬ğŸ‡·"},{"name":"Barcelona Girona","code":"GRO","city":"Girona","country":"Spain","lat":41.901,"lng":2.76055,"flag":"ğŸ‡ªğŸ‡¸"},{"name":"Hamburg","code":"HAM","city":"Hamburg","country":"Germany","lat":53.63028,"lng":9.99111,"flag":"ğŸ‡©ğŸ‡ª"},{"name":"Helsinki","code":"HEL","city":"Helsinki","country":"Finland","lat":60.3172,"lng":24.9633,"flag":"ğŸ‡«ğŸ‡®"},{"name":"Heraklion Crete","code":"HER","city":"Heraklion","country":"Greece","lat":35.3397,"lng":25.1803,"flag":"ğŸ‡¬ğŸ‡·"},{"name":"Frankfurt Hahn","code":"HHN","city":"Frankfurt","country":"Germany","lat":49.9487,"lng":7.26389,"flag":"ğŸ‡©ğŸ‡ª"},{"name":"Iasi","code":"IAS","city":"IASI","country":"Romania","lat":47.17889,"lng":27.617,"flag":"ğŸ‡·ğŸ‡´"},{"name":"Ibiza","code":"IBZ","city":"Ibiza","country":"Spain","lat":38.8729,"lng":1.37312,"flag":"ğŸ‡ªğŸ‡¸"},{"name":"Nis","code":"INI","city":"Nis","country":"Serbia","lat":43.3372,"lng":21.8536,"flag":"ğŸ‡·ğŸ‡¸"},{"name":"Mykonos","code":"JMK","city":"Mykonos","country":"Greece","lat":37.4351,"lng":25.3481,"flag":"ğŸ‡¬ğŸ‡·"},{"name":"Skiathos","code":"JSI","city":"Skiathos","country":"Greece","lat":39.1775,"lng":23.5036,"flag":"ğŸ‡¬ğŸ‡·"},{"name":"Santorini","code":"JTR","city":"Santorini","country":"Greece","lat":36.3992,"lng":25.4793,"flag":"ğŸ‡¬ğŸ‡·"},{"name":"Kos","code":"KGS","city":"Kos","country":"Greece","lat":36.7933,"lng":27.0917,"flag":"ğŸ‡¬ğŸ‡·"},{"name":"Kerry","code":"KIR","city":"Kerry","country":"Ireland","lat":52.1809,"lng":-9.52378,"flag":"ğŸ‡®ğŸ‡ª"},{"name":"Klagenfurt","code":"KLU","city":"Klagenfurt","country":"Austria","lat":46.6425,"lng":14.3377,"flag":"ğŸ‡¦ğŸ‡¹"},{"name":"Kalamata","code":"KLX","city":"Kalamata","country":"Greece","lat":37.0683,"lng":22.0255,"flag":"ğŸ‡¬ğŸ‡·"},{"name":"Krakow","code":"KRK","city":"Krakow","country":"Poland","lat":50.0777,"lng":19.7848,"flag":"ğŸ‡µğŸ‡±"},{"name":"Kosice","code":"KSC","city":"Kosice","country":"Slovakia","lat":48.6631,"lng":21.2411,"flag":"ğŸ‡¸ğŸ‡°"},{"name":"Katowice","code":"KTW","city":"Katowice","country":"Poland","lat":50.4743,"lng":19.08,"flag":"ğŸ‡µğŸ‡±"},{"name":"Kaunas","code":"KUN","city":"Kaunas","country":"Lithuania","lat":54.9639,"lng":24.0848,"flag":"ğŸ‡±ğŸ‡¹"},{"name":"Leeds Bradford","code":"LBA","city":"Leeds","country":"United Kingdom","lat":53.8659,"lng":-1.66057,"flag":"ğŸ‡¬ğŸ‡§"},{"name":"Lubeck","code":"LBC","city":"Hamburg","country":"Germany","lat":53.8054,"lng":10.7192,"flag":"ğŸ‡©ğŸ‡ª"},{"name":"Larnaca","code":"LCA","city":"Larnaca","country":"Cyprus","lat":34.8751,"lng":33.6249,"flag":"ğŸ‡¨ğŸ‡¾"},{"name":"Lodz","code":"LCJ","city":"Lodz","country":"Poland","lat":51.7219,"lng":19.3981,"flag":"ğŸ‡µğŸ‡±"},{"name":"Lourdesâ€“Pyrenees","code":"LDE","city":"Lourdes","country":"France","lat":43.1787,"lng":-0.006439,"flag":"ğŸ‡«ğŸ‡·"},{"name":"Derry","code":"LDY","city":"Derry","country":"United Kingdom","lat":55.0428,"lng":-7.16111,"flag":"ğŸ‡¬ğŸ‡§"},{"name":"Almeria","code":"LEI","city":"Almeria","country":"Spain","lat":36.8439,"lng":-2.3701,"flag":"ğŸ‡ªğŸ‡¸"},{"name":"London Gatwick","code":"LGW","city":"London","country":"United Kingdom","lat":51.1481,"lng":-0.190278,"flag":"ğŸ‡¬ğŸ‡§"},{"name":"Limoges","code":"LIG","city":"Limoges","country":"France","lat":45.8628,"lng":1.17944,"flag":"ğŸ‡«ğŸ‡·"},{"name":"Lille","code":"LIL","city":"Lille","country":"France","lat":50.5619,"lng":3.08944,"flag":"ğŸ‡«ğŸ‡·"},{"name":"Lisbon","code":"LIS","city":"Lisbon","country":"Portugal","lat":38.7813,"lng":-9.13592,"flag":"ğŸ‡µğŸ‡¹"},{"name":"Linz","code":"LNZ","city":"Linz","country":"Austria","lat":48.2332,"lng":14.1875,"flag":"ğŸ‡¦ğŸ‡¹"},{"name":"Gran Canaria","code":"LPA","city":"Gran Canaria","country":"Spain","lat":27.9319,"lng":-15.3866,"flag":"ğŸ‡ªğŸ‡¸"},{"name":"Liverpool","code":"LPL","city":"Liverpool","country":"United Kingdom","lat":53.3336,"lng":-2.84972,"flag":"ğŸ‡¬ğŸ‡§"},{"name":"Lappeenranta","code":"LPP","city":"Lappeenranta","country":"Finland","lat":61.0446,"lng":28.1444,"flag":"ğŸ‡«ğŸ‡®"},{"name":"La Rochelle","code":"LRH","city":"La Rochelle","country":"France","lat":46.1792,"lng":-1.19528,"flag":"ğŸ‡«ğŸ‡·"},{"name":"London Luton","code":"LTN","city":"London","country":"United Kingdom","lat":51.8747,"lng":-0.368333,"flag":"ğŸ‡¬ğŸ‡§"},{"name":"Luxembourg","code":"LUX","city":"Luxembourg","country":"Luxembourg","lat":49.6233,"lng":6.2044,"flag":"ğŸ‡±ğŸ‡º"},{"name":"Lublin","code":"LUZ","city":"Lublin","country":"Poland","lat":51.2319,"lng":22.6903,"flag":"ğŸ‡µğŸ‡±"},{"name":"Lemnos","code":"LXS","city":"Lemnos","country":"Greece","lat":39.5501,"lng":25.1411,"flag":"ğŸ‡¬ğŸ‡·"},{"name":"Madrid","code":"MAD","city":"Madrid","country":"Spain","lat":40.4936,"lng":-3.56676,"flag":"ğŸ‡ªğŸ‡¸"},{"name":"Menorca","code":"MAH","city":"Menorca","country":"Spain","lat":39.8626,"lng":4.21865,"flag":"ğŸ‡ªğŸ‡¸"},{"name":"Manchester","code":"MAN","city":"Manchester","country":"United Kingdom","lat":53.3537,"lng":-2.27495,"flag":"ğŸ‡¬ğŸ‡§"},{"name":"Malta","code":"MLA","city":"Malta","country":"Malta","lat":35.8575,"lng":14.4775,"flag":"ğŸ‡²ğŸ‡¹"},{"name":"Teesside","code":"MME","city":"Newcastle","country":"United Kingdom","lat":54.5092,"lng":-1.42941,"flag":"ğŸ‡¬ğŸ‡§"},{"name":"Malmo","code":"MMX","city":"Malmo","country":"Sweden","lat":55.5363,"lng":13.3762,"flag":"ğŸ‡¸ğŸ‡ª"},{"name":"Marseille","code":"MRS","city":"Marseille","country":"France","lat":43.4393,"lng":5.22142,"flag":"ğŸ‡«ğŸ‡·"},{"name":"Maastricht","code":"MST","city":"Maastricht","country":"Netherlands","lat":50.9117,"lng":5.77014,"flag":"ğŸ‡³ğŸ‡±"},{"name":"Milan Malpensa","code":"MXP","city":"Milan","country":"Italy","lat":45.63,"lng":8.7231,"flag":"ğŸ‡®ğŸ‡¹"},{"name":"Naples","code":"NAP","city":"Naples","country":"Italy","lat":40.5304,"lng":14.1727,"flag":"ğŸ‡®ğŸ‡¹"},{"name":"Nice","code":"NCE","city":"Nice","country":"France","lat":43.6584,"lng":7.21587,"flag":"ğŸ‡«ğŸ‡·"},{"name":"Newcastle","code":"NCL","city":"Newcastle","country":"United Kingdom","lat":55.0375,"lng":-1.69167,"flag":"ğŸ‡¬ğŸ‡§"},{"name":"Nador","code":"NDR","city":"Nador","country":"Morocco","lat":34.9888,"lng":-3.02821,"flag":"ğŸ‡²ğŸ‡¦"},{"name":"Knock","code":"NOC","city":"Knock","country":"Ireland","lat":53.9103,"lng":-8.81849,"flag":"ğŸ‡®ğŸ‡ª"},{"name":"Newquay Cornwall","code":"NQY","city":"Newquay","country":"United Kingdom","lat":50.4406,"lng":-4.99541,"flag":"ğŸ‡¬ğŸ‡§"},{"name":"Dusseldorf Weeze","code":"NRN","city":"Dusseldorf","country":"Germany","lat":51.6024,"lng":6.14217,"flag":"ğŸ‡©ğŸ‡ª"},{"name":"Nantes","code":"NTE","city":"Nantes","country":"France","lat":47.1532,"lng":-1.61073,"flag":"ğŸ‡«ğŸ‡·"},{"name":"Nuremberg","code":"NUE","city":"Nuremberg","country":"Germany","lat":49.4987,"lng":11.0669,"flag":"ğŸ‡©ğŸ‡ª"},{"name":"Norwich","code":"NWI","city":"Norwich","country":"United Kingdom","lat":52.672163978,"lng":1.276332228,"flag":"ğŸ‡¬ğŸ‡§"},{"name":"Olbia","code":"OLB","city":"Olbia","country":"Italy","lat":40.8987,"lng":9.51763,"flag":"ğŸ‡®ğŸ‡¹"},{"name":"Porto","code":"OPO","city":"Porto","country":"Portugal","lat":41.2481,"lng":-8.68139,"flag":"ğŸ‡µğŸ‡¹"},{"name":"Ã–rebro","code":"ORB","city":"Ã–rebro","country":"Sweden","lat":59.2275,"lng":15.0462,"flag":"ğŸ‡¸ğŸ‡ª"},{"name":"Cork","code":"ORK","city":"Cork","country":"Ireland","lat":51.8413,"lng":-8.49111,"flag":"ğŸ‡®ğŸ‡ª"},{"name":"Osijek","code":"OSI","city":"Osijek","country":"Croatia","lat":45.4627,"lng":18.8102,"flag":"ğŸ‡­ğŸ‡·"},{"name":"Oslo","code":"OSL","city":"Oslo","country":"Norway","lat":60.2028,"lng":11.0839,"flag":"ğŸ‡³ğŸ‡´"},{"name":"Ostrava","code":"OSR","city":"Ostrava","country":"Czech Republic","lat":49.6963,"lng":18.1111,"flag":"ğŸ‡¨ğŸ‡¿"},{"name":"Bucharest Otopeni","code":"OTP","city":"Bucharest","country":"Romania","lat":44.5722,"lng":26.1022,"flag":"ğŸ‡·ğŸ‡´"},{"name":"Oujda","code":"OUD","city":"Oujda","country":"Morocco","lat":34.7872,"lng":-1.92399,"flag":"ğŸ‡²ğŸ‡¦"},{"name":"Asturias","code":"OVD","city":"Oviedo","country":"Spain","lat":43.5636,"lng":-6.03462,"flag":"ğŸ‡ªğŸ‡¸"},{"name":"Ouarzazate","code":"OZZ","city":"Ouarzazate","country":"Morocco","lat":30.9392,"lng":-6.9094,"flag":"ğŸ‡²ğŸ‡¦"},{"name":"Paderborn","code":"PAD","city":"Paderborn","country":"Germany","lat":51.3655,"lng":8.3702,"flag":"ğŸ‡©ğŸ‡ª"},{"name":"Ponta Delgada","code":"PDL","city":"Ponta Delgada","country":"Portugal","lat":37.74194,"lng":-25.69778,"flag":"ğŸ‡µğŸ‡¹"},{"name":"Plovdiv","code":"PDV","city":"Plovdiv","country":"Bulgaria","lat":42.0678,"lng":24.8508,"flag":"ğŸ‡§ğŸ‡¬"},{"name":"Pardubice","code":"PED","city":"Pardubice","country":"Czech Republic","lat":50.0048,"lng":15.4419,"flag":"ğŸ‡¨ğŸ‡¿"},{"name":"Perugia","code":"PEG","city":"Perugia","country":"Italy","lat":43.0959,"lng":12.5132,"flag":"ğŸ‡®ğŸ‡¹"},{"name":"Paphos","code":"PFO","city":"Paphos","country":"Cyprus","lat":34.718,"lng":32.4857,"flag":"ğŸ‡¨ğŸ‡¾"},{"name":"Perpignan","code":"PGF","city":"Perpignan","country":"France","lat":42.7404,"lng":2.87067,"flag":"ğŸ‡«ğŸ‡·"},{"name":"Glasgow Prestwick","code":"PIK","city":"Glasgow","country":"United Kingdom","lat":55.5094,"lng":-4.58667,"flag":"ğŸ‡¬ğŸ‡§"},{"name":"Poitiers","code":"PIS","city":"Poitiers","country":"France","lat":46.5877,"lng":0.306666,"flag":"ğŸ‡«ğŸ‡·"},{"name":"Palanga","code":"PLQ","city":"Palanga","country":"Lithuania","lat":55.9733,"lng":21.0939,"flag":"ğŸ‡±ğŸ‡¹"},{"name":"Parma","code":"PMF","city":"Parma","country":"Italy","lat":44.8245,"lng":10.2964,"flag":"ğŸ‡®ğŸ‡¹"},{"name":"Palma de Mallorca","code":"PMI","city":"Palma","country":"Spain","lat":39.5517,"lng":2.73881,"flag":"ğŸ‡ªğŸ‡¸"},{"name":"Palermo","code":"PMO","city":"Palermo","country":"Italy","lat":38.176,"lng":13.091,"flag":"ğŸ‡®ğŸ‡¹"},{"name":"Poznan","code":"POZ","city":"Poznan","country":"Poland","lat":52.421,"lng":16.8263,"flag":"ğŸ‡µğŸ‡±"},{"name":"Prague","code":"PRG","city":"Prague","country":"Czech Republic","lat":50.1008,"lng":14.26,"flag":"ğŸ‡¨ğŸ‡¿"},{"name":"Pisa","code":"PSA","city":"Pisa","country":"Italy","lat":43.6839,"lng":10.3927,"flag":"ğŸ‡®ğŸ‡¹"},{"name":"Pescara","code":"PSR","city":"Pescara","country":"Italy","lat":42.4317,"lng":14.1811,"flag":"ğŸ‡®ğŸ‡¹"},{"name":"Pula","code":"PUY","city":"Pula","country":"Croatia","lat":44.8935,"lng":13.9222,"flag":"ğŸ‡­ğŸ‡·"},{"name":"Preveza - Aktion","code":"PVK","city":"Preveza","country":"Greece","lat":38.9256,"lng":20.7653,"flag":"ğŸ‡¬ğŸ‡·"},{"name":"Salerno Costa d'Amalfi","code":"QSR","city":"Salerno ","country":"Italy","lat":40.3712,"lng":14.5445,"flag":"ğŸ‡®ğŸ‡¹"},{"name":"Marrakesh","code":"RAK","city":"Marrakesh","country":"Morocco","lat":31.6069,"lng":-8.0363,"flag":"ğŸ‡²ğŸ‡¦"},{"name":"Rabat","code":"RBA","city":"Rabat","country":"Morocco","lat":34.0515,"lng":-6.75152,"flag":"ğŸ‡²ğŸ‡¦"},{"name":"Rodez","code":"RDZ","city":"Rodez","country":"France","lat":44.4079,"lng":2.48267,"flag":"ğŸ‡«ğŸ‡·"},{"name":"Reggio Calabria","code":"REG","city":"Reggio Calabria","country":"Italy","lat":38.0419,"lng":15.3913,"flag":"ğŸ‡®ğŸ‡¹"},{"name":"Barcelona Reus","code":"REU","city":"Reus","country":"Spain","lat":41.1474,"lng":1.16717,"flag":"ğŸ‡ªğŸ‡¸"},{"name":"Rhodes","code":"RHO","city":"Rhodes","country":"Greece","lat":36.4054,"lng":28.0862,"flag":"ğŸ‡¬ğŸ‡·"},{"name":"Riga","code":"RIX","city":"Riga","country":"Latvia","lat":56.9236,"lng":23.9711,"flag":"ğŸ‡±ğŸ‡»"},{"name":"Rijeka","code":"RJK","city":"Rijeka","country":"Croatia","lat":45.2169,"lng":14.5703,"flag":"ğŸ‡­ğŸ‡·"},{"name":"Rimini","code":"RMI","city":"Rimini","country":"Italy","lat":44.0203,"lng":12.6117,"flag":"ğŸ‡®ğŸ‡¹"},{"name":"Murcia International","code":"RMU","city":"Murcia","country":"Spain","lat":37.7903,"lng":-1.1418,"flag":"ğŸ‡ªğŸ‡¸"},{"name":"Lapland Rovaniemi","code":"RVN","city":"Rovaniemi","country":"Finland","lat":66.5631,"lng":25.8301,"flag":"ğŸ‡«ğŸ‡®"},{"name":"Rzeszow","code":"RZE","city":"Rzeszow","country":"Poland","lat":50.11,"lng":22.019,"flag":"ğŸ‡µğŸ‡±"},{"name":"Santiago","code":"SCQ","city":"Santiago","country":"Spain","lat":42.8963,"lng":-8.41514,"flag":"ğŸ‡ªğŸ‡¸"},{"name":"Santander","code":"SDR","city":"Santander","country":"Spain","lat":43.4271,"lng":-3.82001,"flag":"ğŸ‡ªğŸ‡¸"},{"name":"Skelleftea","code":"SFT","city":"Skelleftea","country":"Sweden","lat":64.6248,"lng":21.0769,"flag":"ğŸ‡¸ğŸ‡ª"},{"name":"Sarajevo","code":"SJJ","city":"Sarajevo","country":"Bosnia & Herzegovina","lat":43.4929,"lng":18.1953,"flag":"ğŸ‡§ğŸ‡¦"},{"name":"Thessaloniki","code":"SKG","city":"Thessaloniki","country":"Greece","lat":40.5197,"lng":22.9709,"flag":"ğŸ‡¬ğŸ‡·"},{"name":"Shannon","code":"SNN","city":"Shannon","country":"Ireland","lat":52.702,"lng":-8.92482,"flag":"ğŸ‡®ğŸ‡ª"},{"name":"Sofia","code":"SOF","city":"Sofia","country":"Bulgaria","lat":42.67,"lng":23.35,"flag":"ğŸ‡§ğŸ‡¬"},{"name":"Split","code":"SPU","city":"Split","country":"Croatia","lat":43.5389,"lng":16.2981,"flag":"ğŸ‡­ğŸ‡·"},{"name":"London Stansted","code":"STN","city":"London","country":"United Kingdom","lat":51.885,"lng":0.235,"flag":"ğŸ‡¬ğŸ‡§"},{"name":"Lamezia","code":"SUF","city":"Lamezia","country":"Italy","lat":38.9054,"lng":16.2423,"flag":"ğŸ‡®ğŸ‡¹"},{"name":"Seville","code":"SVQ","city":"Seville","country":"Spain","lat":37.418,"lng":-5.89311,"flag":"ğŸ‡ªğŸ‡¸"},{"name":"Strasbourg","code":"SXB","city":"Strasbourg","country":"France","lat":48.5383,"lng":7.62823,"flag":"ğŸ‡«ğŸ‡·"},{"name":"Salzburg","code":"SZG","city":"Salzburg","country":"Austria","lat":47.7933,"lng":13.0043,"flag":"ğŸ‡¦ğŸ‡¹"},{"name":"Olsztyn - Mazury","code":"SZY","city":"Olsztyn","country":"Poland","lat":53.4819,"lng":20.9378,"flag":"ğŸ‡µğŸ‡±"},{"name":"Szczecin","code":"SZZ","city":"Szczecin","country":"Poland","lat":53.5847,"lng":14.9022,"flag":"ğŸ‡µğŸ‡±"},{"name":"Poprad - Tatry (Tatra Mountains)","code":"TAT","city":"Poprad - Tatry (Tatra Mountains)","country":"Slovakia","lat":49.0419,"lng":20.1425,"flag":"ğŸ‡¸ğŸ‡°"},{"name":"Terceira Lajes","code":"TER","city":"Terceira","country":"Portugal","lat":38.761944,"lng":-27.090833,"flag":"ğŸ‡µğŸ‡¹"},{"name":"Tenerife North","code":"TFN","city":"Tenerife","country":"Spain","lat":28.4827,"lng":-16.3415,"flag":"ğŸ‡ªğŸ‡¸"},{"name":"Tenerife South","code":"TFS","city":"Tenerife","country":"Spain","lat":28.0445,"lng":-16.5725,"flag":"ğŸ‡ªğŸ‡¸"},{"name":"Podgorica","code":"TGD","city":"Podgorica","country":"Montenegro","lat":42.3594,"lng":19.2519,"flag":"ğŸ‡²ğŸ‡ª"},{"name":"Tirana","code":"TIA","city":"Tirana","country":"Albania","lat":41.4147,"lng":19.7206,"flag":"ğŸ‡¦ğŸ‡±"},{"name":"Tallinn","code":"TLL","city":"Tallinn","country":"Estonia","lat":59.4133,"lng":24.8328,"flag":"ğŸ‡ªğŸ‡ª"},{"name":"Toulouse","code":"TLS","city":"Toulouse","country":"France","lat":43.6044,"lng":1.4439,"flag":"ğŸ‡«ğŸ‡·"},{"name":"Tel Aviv","code":"TLV","city":"Tel Aviv","country":"Israel","lat":32.0034,"lng":34.5258,"flag":"ğŸ‡®ğŸ‡±"},{"name":"Tangier","code":"TNG","city":"Tangier","country":"Morocco","lat":35.7269,"lng":-5.91689,"flag":"ğŸ‡²ğŸ‡¦"},{"name":"Trapani-Marsala","code":"TPS","city":"Trapani","country":"Italy","lat":37.9114,"lng":12.488,"flag":"ğŸ‡®ğŸ‡¹"},{"name":"Oslo Torp","code":"TRF","city":"Sandefjord","country":"Norway","lat":59.1867,"lng":10.2586,"flag":"ğŸ‡³ğŸ‡´"},{"name":"Turin","code":"TRN","city":"Turin","country":"Italy","lat":45.2008,"lng":7.64963,"flag":"ğŸ‡®ğŸ‡¹"},{"name":"Trieste","code":"TRS","city":"Trieste","country":"Italy","lat":45.8275,"lng":13.4722,"flag":"ğŸ‡®ğŸ‡¹"},{"name":"Venice Treviso","code":"TSF","city":"Venice","country":"Italy","lat":45.6484,"lng":12.1944,"flag":"ğŸ‡®ğŸ‡¹"},{"name":"TÃ©touan","code":"TTU","city":"TÃ©touan","country":"Morocco","lat":35.5944,"lng":-5.32,"flag":"ğŸ‡²ğŸ‡¦"},{"name":"Tours Loire Valley","code":"TUF","city":"Tours","country":"France","lat":47.4322,"lng":0.727606,"flag":"ğŸ‡«ğŸ‡·"},{"name":"Varna","code":"VAR","city":"Varna","country":"Bulgaria","lat":43.1355,"lng":27.4931,"flag":"ğŸ‡§ğŸ‡¬"},{"name":"Venice M.Polo","code":"VCE","city":"Venice","country":"Italy","lat":45.5053,"lng":12.3519,"flag":"ğŸ‡®ğŸ‡¹"},{"name":"Vigo","code":"VGO","city":"Vigo","country":"Spain","lat":42.23,"lng":-8.63,"flag":"ğŸ‡ªğŸ‡¸"},{"name":"Vienna","code":"VIE","city":"Vienna","country":"Austria","lat":48.0639,"lng":16.3415,"flag":"ğŸ‡¦ğŸ‡¹"},{"name":"Dakhla ","code":"VIL","city":"Dakhla","country":"Morocco","lat":23.7182999,"lng":-15.9320002,"flag":"ğŸ‡²ğŸ‡¦"},{"name":"Vitoria (Basque Country)","code":"VIT","city":"Vitoria-Gasteiz","country":"Spain","lat":42.8828,"lng":-2.7244,"flag":"ğŸ‡ªğŸ‡¸"},{"name":"Valencia","code":"VLC","city":"Valencia","country":"Spain","lat":39.4893,"lng":-0.481625,"flag":"ğŸ‡ªğŸ‡¸"},{"name":"Vilnius","code":"VNO","city":"Vilnius","country":"Lithuania","lat":54.6341,"lng":25.2858,"flag":"ğŸ‡±ğŸ‡¹"},{"name":"Volos","code":"VOL","city":"Volos","country":"Greece","lat":39.2196,"lng":22.7943,"flag":"ğŸ‡¬ğŸ‡·"},{"name":"Verona","code":"VRN","city":"Verona","country":"Italy","lat":45.3957,"lng":10.8885,"flag":"ğŸ‡®ğŸ‡¹"},{"name":"Stockholm VÃ¤sterÃ¥s","code":"VST","city":"Stockholm","country":"Sweden","lat":59.5894,"lng":16.6336,"flag":"ğŸ‡¸ğŸ‡ª"},{"name":"VÃ¤xjÃ¶ SmÃ¥land","code":"VXO","city":"VÃ¤xjÃ¶","country":"Sweden","lat":56.9291,"lng":14.728,"flag":"ğŸ‡¸ğŸ‡ª"},{"name":"Warsaw Chopin","code":"WAW","city":"Warsaw","country":"Poland","lat":52.1657,"lng":20.9671,"flag":"ğŸ‡µğŸ‡±"},{"name":"Warsaw Modlin","code":"WMI","city":"Warsaw","country":"Poland","lat":52.4511,"lng":20.6517,"flag":"ğŸ‡µğŸ‡±"},{"name":"Wroclaw","code":"WRO","city":"Wroclaw","country":"Poland","lat":51.1027,"lng":16.8858,"flag":"ğŸ‡µğŸ‡±"},{"name":"Paris Vatry","code":"XCR","city":"Paris","country":"France","lat":48.7761,"lng":4.18449,"flag":"ğŸ‡«ğŸ‡·"},{"name":"Zadar","code":"ZAD","city":"Zadar","country":"Croatia","lat":44.1083,"lng":15.3467,"flag":"ğŸ‡­ğŸ‡·"},{"name":"Zagreb","code":"ZAG","city":"Zagreb","country":"Croatia","lat":45.7431,"lng":16.0689,"flag":"ğŸ‡­ğŸ‡·"},{"name":"Zaragoza","code":"ZAZ","city":"Zaragoza","country":"Spain","lat":41.6662,"lng":-1.04155,"flag":"ğŸ‡ªğŸ‡¸"},{"name":"Zakynthos","code":"ZTH","city":"Zakynthos","country":"Greece","lat":37.7509,"lng":20.8843,"flag":"ğŸ‡¬ğŸ‡·"}]